City_ID,City,Lat,Lng,Max Temp,Humidity,Cloudiness,Wind Speed,Country,Date
0,tindouf,27.6711,-8.1474,19.4,47,18,5.02,DZ,1699166752
1,whitehorse,60.7161,-135.0538,-1.06,81,75,4.63,CA,1699202160
2,trondheim,63.4305,10.3951,5.05,89,100,2.4,NO,1699168097
3,enewetak,11.3474,162.3373,28.49,72,95,7.87,MH,1699211021
4,weno,7.4515,151.8468,28.85,76,98,5.5,FM,1699213271
5,adamstown,-25.066,-130.1015,22.74,77,100,7.43,PN,1699192196
6,port-aux-francais,-49.35,70.2167,3.16,76,95,12.58,TF,1699227599
7,waitangi,-43.9535,-176.5597,12.68,87,100,2.68,NZ,1699287632
8,san antonio de pale,-1.4014,5.6325,26.15,83,31,4.37,GQ,1699161361
9,grytviken,-54.2811,-36.5092,0.32,87,84,2.67,GS,1699165901
10,longyearbyen,78.2186,15.6401,-13.09,56,20,4.63,SJ,0
11,blackmans bay,-43.0167,147.3167,14.74,75,16,0.45,AU,1699210100
12,egremont,54.4794,-3.5276,8.04,87,99,3.32,GB,1699168995
13,tyukhtet,56.5389,89.3011,-6.49,91,100,4.64,RU,1699233659
14,tiksi,71.6872,128.8694,-24.7,99,88,2.26,RU,1699231369
15,alofi,-19.0595,-169.9187,25.94,69,42,7.2,NU,1699202235
16,ilulissat,69.2167,-51.1,-3.99,42,73,9.77,GL,1699185834
17,tulagi,-9.0996,160.1476,27.57,78,98,10.13,SB,1699210148
18,lebu,-37.6167,-73.65,13.56,76,100,5.56,CL,1699177431
19,hamilton,39.1834,-84.5333,16.69,41,0,2.06,US,1699186197
20,flying fish cove,-10.4217,105.6791,25.82,83,100,3.6,CX,1699223126
21,fendou,46.65,124.8667,-5.24,60,100,11.04,CN,1699223313
22,margaret river,-33.95,115.0667,16.25,84,49,6.09,AU,1699218911
23,lompoc,34.6391,-120.4579,24.83,74,0,6.71,US,1699194353
24,nadym,65.5333,72.5167,-10.54,93,17,5.09,RU,1699240629
25,asbury,42.5144,-90.7515,15.29,49,82,2.24,US,1699188079
26,tselinnoye,53.0833,85.6667,-10.37,99,93,3.38,RU,1699233800
27,wailua homesteads,22.0669,-159.378,26.59,75,81,1.79,US,1699202613
28,kuusamo,65.9667,29.1833,-0.98,100,100,1.03,FI,1699251262
29,zouerate,22.7187,-12.4521,22.85,37,2,3.57,MR,1699167387
30,callao,-12.0667,-77.15,22.62,73,75,5.14,PE,1699180494
31,dubbo,-32.25,148.6167,18.07,59,9,8.75,AU,1699211036
32,sao gabriel da cachoeira,-0.1303,-67.0892,28.42,73,97,0.18,BR,1699178900
33,arkhangel'sk,64.5401,40.5433,3.4,99,100,5.51,RU,1699247880
34,anadyr,64.75,177.4833,-6.72,73,40,7.0,RU,1699215027
35,colonia,50.9333,6.95,11.36,79,0,6.17,DE,1699165818
36,kabare,-2.4683,28.8242,16.55,96,90,0.19,CD,1699242122
37,tofol,5.3248,163.0078,28.57,72,100,2.93,FM,1699210447
38,northam,51.0333,-4.2167,10.7,87,99,10.13,GB,1699168518
39,richards bay,-28.783,32.0377,21.39,88,94,3.99,ZA,1699239333
40,ribeira grande,38.5167,-28.7,14.22,67,40,2.68,PT,1699172714
41,saipan,15.1355,145.701,28.58,73,40,7.84,MP,1699215283
42,edinburgh of the seven seas,-37.0676,-12.3116,13.25,70,99,3.29,SH,1699162782
43,tazovsky,67.4667,78.7,-12.52,96,90,3.43,RU,1699240141
44,al kharijah,25.4514,30.5464,24.05,30,0,3.98,EG,1699243718
45,hermanus,-34.4187,19.2345,16.21,84,89,3.31,ZA,1699241848
46,rabaul,-4.1967,152.1721,27.3,78,84,1.18,PG,1699212401
47,ushuaia,-54.8,-68.3,12.81,76,75,5.14,AR,1699173401
48,qaqortoq,60.7167,-46.0333,-1.4,97,100,1.59,GL,1699180756
49,east london,-33.0153,27.9116,19.01,88,76,3.07,ZA,1699239912
50,nadi,-17.8,177.4167,30.0,58,75,1.03,FJ,1699205371
51,tagta,41.6504,59.9164,5.97,61,0,1.03,TM,1699238257
52,bilibino,68.0546,166.4372,-19.13,97,95,2.64,RU,1699219371
53,iqaluit,63.7506,-68.5145,-4.15,49,75,8.23,CA,1699187198
54,jamestown,42.097,-79.2353,8.8,53,0,4.12,US,1699185261
55,kokopo,-4.352,152.2633,26.99,79,98,0.7,PG,1699212369
56,afaahiti,-17.75,-149.2833,26.93,84,52,4.13,PF,1699197385
57,bethel,41.3712,-73.414,16.17,61,20,4.12,US,1699183776
58,albany,42.6001,-73.9662,10.2,55,19,3.92,US,1699184057
59,amga,60.8953,131.9608,-16.86,98,100,0.61,RU,1699224573
60,harper,4.375,-7.7169,25.76,87,9,2.35,LR,1699164952
61,kamloops,50.6665,-120.3192,14.3,58,75,2.06,CA,1699196354
62,san andres,12.5847,-81.7006,31.01,74,20,2.57,CO,1699183271
63,haiku-pauwela,20.9219,-156.3051,28.43,61,33,7.6,US,1699201787
64,hailey,43.5196,-114.3153,12.67,53,75,3.13,US,1699193865
65,port mathurin,-19.6833,63.4167,24.43,80,14,4.21,MU,1699232577
66,murzuq,25.9155,13.9184,22.55,19,0,1.73,LY,1699247749
67,guerrero negro,27.9769,-114.0611,27.76,37,0,4.56,MX,1699192210
68,toliara,-23.35,43.6667,24.14,82,70,2.24,MG,1699237019
69,stanley,54.868,-1.6985,5.4,94,70,2.04,GB,1699168636
70,kingston,17.997,-76.7936,31.53,73,20,7.2,JM,1699182479
71,fort mcmurray,56.7268,-111.381,-1.23,80,100,3.09,CA,1699195408
72,papao,-17.75,-149.55,27.82,82,16,3.34,PF,1699197449
73,west island,-12.1568,96.8225,24.99,94,75,6.69,CC,1699225127
74,puerto natales,-51.7236,-72.4875,10.28,58,100,3.96,CL,1699175064
75,hawaiian paradise park,19.5933,-154.9731,26.04,81,100,1.54,US,1699201367
76,estancia,-11.2683,-37.4383,25.45,84,56,4.82,BR,1699171022
77,college,64.8569,-147.8028,-5.67,78,100,3.09,US,1699206722
78,portales,34.1862,-103.3344,27.38,17,41,2.24,US,1699190196
79,talnakh,69.4865,88.3972,-10.73,96,100,2.25,RU,1699239131
80,al jahra',29.3375,47.6581,25.35,37,0,4.84,KW,1699239940
81,lodwar,3.1191,35.5973,24.32,75,87,4.46,KE,1699240878
82,jeddah,21.5169,39.2192,29.92,70,0,1.54,SA,1699241322
83,el granada,37.5027,-122.4694,24.95,79,100,4.12,US,1699195127
84,cobija,-11.0267,-68.7692,30.58,50,99,0.12,BO,1699178557
85,mount gambier,-37.8333,140.7667,18.3,53,91,3.12,AU,1699212322
86,manay,7.215,126.5397,25.74,82,96,2.26,PH,1699219329
87,noosa heads,-26.3833,153.15,20.74,75,96,4.84,AU,1699210495
88,kodiak,57.79,-152.4072,-0.15,54,30,5.85,US,1699205526
89,punta cardon,11.6581,-70.215,29.32,73,99,8.06,VE,1699180449
90,khandyga,62.6667,135.6,-21.78,100,100,0.75,RU,1699224288
91,remire-montjoly,4.9167,-52.2667,28.02,83,20,1.54,GF,1699175681
92,krasnovishersk,60.4078,57.082,-1.52,80,100,3.53,RU,1699242428
93,cockburn town,21.4612,-71.1419,28.98,65,40,5.14,TC,1699181381
94,olonkinbyen,70.9221,-8.7187,-1.64,67,100,10.63,SJ,1699176991
95,thompson,55.7435,-97.8558,-6.91,73,100,3.09,CA,1699191934
96,lazaro cardenas,17.9583,-102.2,28.63,78,99,3.98,MX,1699188576
97,uzgen,40.7699,73.3007,6.16,27,91,2.38,KG,1699234937
98,kayangel,8.0823,134.7173,27.84,78,47,2.16,PW,1699217425
99,hadibu,12.65,54.0333,26.48,79,73,2.54,YE,1699237111
100,bredasdorp,-34.5322,20.0403,14.76,92,25,1.29,ZA,1699241643
101,bima,-8.4667,118.7167,24.33,89,17,1.29,ID,1699220135
102,mejit,10.2753,170.8646,28.08,73,50,9.46,MH,1699208900
103,kruisfontein,-34.0033,24.7314,14.1,87,93,1.16,ZA,1699240573
104,santa flavia,38.085,13.5351,21.44,63,1,4.02,IT,1699162523
105,baiti,13.745,-14.7482,31.33,44,56,2.7,SN,1699167279
106,invercargill,-46.4,168.35,13.34,62,69,0.89,NZ,1699204563
107,rock springs,41.5875,-109.2029,14.69,37,0,8.75,US,1699192399
108,qamdo,31.1667,97.2333,-9.83,30,3,0.68,CN,1699228200
109,castillos,-34.1667,-53.8333,13.7,69,100,3.35,UY,1699173052
110,new norfolk,-42.7826,147.0587,15.4,63,27,0.84,AU,1699210194
111,ayvacik,39.6011,26.4047,19.79,87,4,6.02,TR,1699246066
112,pisco,-13.7,-76.2167,21.03,73,0,10.8,PE,1699180153
113,nabire,-3.3667,135.4833,25.59,90,65,1.41,ID,1699216463
114,santa luzia,-19.7697,-43.8514,30.6,31,20,2.57,BR,1699171933
115,broken hill,-31.95,141.4333,22.25,23,43,4.42,AU,1699212789
116,ulsteinvik,62.3432,5.8487,8.2,71,51,2.68,NO,1699168802
117,aykhal,66.0,111.5,-12.93,96,100,2.58,RU,1699231472
118,chita,52.0333,113.55,-20.06,71,47,2.0,RU,1699226903
119,isafjordur,66.0755,-23.124,-1.35,87,100,12.06,IS,1699177280
120,lidkoping,58.5052,13.1577,7.01,95,100,2.85,SE,1699165907
121,happy valley-goose bay,53.3168,-60.3315,-2.83,50,75,3.6,CA,1699182417
122,maceio,-9.6658,-35.7353,25.69,88,0,4.12,BR,1699170726
123,vilyuchinsk,52.9306,158.4028,1.63,67,50,1.97,RU,1699216291
124,puerto ayora,-0.7393,-90.3518,30.98,84,38,4.47,EC,1699184442
125,papatowai,-46.5619,169.4708,11.69,56,74,1.74,NZ,1699204269
126,aasiaat,68.7098,-52.8699,-17.14,84,74,3.74,GL,1699185916
127,st. john's,47.5649,-52.7093,9.82,98,100,3.91,CA,1699179618
128,nuuk,64.1835,-51.7216,1.34,80,100,8.75,GL,1699183329
129,imbituba,-28.24,-48.6703,16.76,82,41,3.2,BR,1699172384
130,koubia,11.5833,-11.9,22.64,60,100,1.13,GN,1699166445
131,broome,42.2506,-75.833,8.17,73,57,1.34,US,1699184463
132,borogontsy,62.6683,131.1683,-19.69,98,100,1.05,RU,1699225354
133,prince rupert,54.3161,-130.3201,10.83,94,100,6.17,CA,1699199435
134,saint martinville,30.1252,-91.8335,28.03,36,0,0.0,US,1699187059
135,san patricio,28.017,-97.5169,29.4,50,100,4.62,US,1699188241
136,leibnitz,46.7816,15.5384,11.26,91,2,1.78,AT,1699163108
137,flin flon,54.7682,-101.865,-3.09,86,100,3.6,CA,1699192689
138,portland,45.5234,-122.6762,16.97,50,75,3.6,US,1699196138
139,muisne,0.6,-80.0333,25.93,79,87,4.32,EC,1699182056
140,muntok,-2.0667,105.1833,25.9,83,96,1.32,ID,1699223824
141,menongue,-14.6585,17.691,18.42,88,100,1.19,AO,1699157550
142,geraldton,-28.7667,114.6,20.23,68,100,2.06,AU,1699219529
143,utrik,11.2278,169.8474,27.99,77,22,10.01,MH,1699209210
144,nova sintra,14.8667,-24.7167,23.68,75,37,4.85,CV,1699169752
145,yellowknife,62.456,-114.3525,-5.88,95,75,9.26,CA,1699197748
146,vorgashor,67.5833,63.95,-14.09,99,95,2.73,RU,1699243759
147,mahina,-17.5065,-149.489,27.87,69,75,4.63,PF,1699197453
148,loukhi,66.0764,33.0381,-1.21,98,100,1.96,RU,1699250389
149,celestun,20.8667,-90.4,26.7,66,94,7.91,MX,1699185960
150,palmer,42.1584,-72.3287,12.14,62,19,2.11,US,1699183610
151,tinde,-3.8833,33.2,21.2,80,65,1.27,TZ,1699240975
152,jingdezhen,29.2947,117.2079,14.47,90,100,1.31,CN,1699223236
153,adler,43.43,39.92,18.09,55,100,5.0,RU,1699243282
154,minas de marcona,-15.2119,-75.1103,16.41,69,96,6.24,PE,1699179777
155,huilong,31.8111,121.655,14.67,75,100,9.9,CN,1699222394
156,hasaki,35.7333,140.8333,21.27,73,11,7.08,JP,1699218168
157,petropavlovsk-kamchatsky,53.0452,158.6483,0.81,79,40,5.36,RU,1699216254
158,boulder city,35.9786,-114.8325,24.22,11,0,4.63,US,1699193135
159,kiunga,-6.1219,141.2906,24.39,97,85,1.58,PG,1699214881
160,keflavik,64.0049,-22.5624,3.95,75,0,13.38,IS,1699176244
161,kidal,18.4411,1.4078,27.58,8,0,4.22,ML,1699163737
162,impfondo,1.6381,18.0667,22.81,85,21,1.02,CG,1699158580
163,launceston,-41.45,147.1667,15.64,72,29,1.54,AU,1699210345
164,santo antonio,-6.3106,-35.4789,25.3,70,12,4.95,BR,1699170896
165,ust-nera,64.5667,143.2,-21.66,100,99,1.55,RU,1699223196
166,amurzet,47.6967,131.0981,-7.23,82,100,4.89,RU,1699221969
167,new plymouth,-39.0667,174.0833,14.06,62,19,1.19,NZ,1699204187
168,dampit,-8.2116,112.7493,21.8,92,75,1.36,ID,1699221585
169,linxia chengguanzhen,35.6003,103.2064,0.42,53,0,0.58,CN,1699227191
170,lihue,21.9789,-159.3672,26.92,75,80,7.21,US,1699202603
171,thunder bay,48.4001,-89.3168,2.99,80,100,6.17,CA,1699188539
172,turtas,58.9417,69.1325,-5.16,87,100,3.26,RU,1699239111
173,burutu,5.3509,5.5076,25.97,86,62,2.25,NG,1699161843
174,gorontalo,0.5412,123.0595,24.63,89,25,1.02,ID,1699219711
175,iwanai,42.9744,140.5089,8.27,90,100,3.52,JP,1699219061
176,manggar,-2.8833,108.2667,26.92,79,96,0.82,ID,1699223028
177,kismayo,-0.3582,42.5454,26.89,83,88,4.22,SO,1699238974
178,port alfred,-33.5906,26.891,17.49,87,7,2.45,ZA,1699240098
179,bonthe,7.5264,-12.505,26.49,85,37,1.52,SL,1699166313
180,fort st. john,56.2499,-120.8529,-0.06,100,100,4.63,CA,1699197575
181,fale old settlement,-9.3852,-171.2468,28.33,75,100,2.68,TK,1699289654
182,ebaye,8.7748,167.7392,26.01,78,0,6.69,MH,1699209546
183,badger,64.8,-147.5333,-5.72,78,100,0.45,US,1699206633
184,jonesboro,35.8423,-90.7043,22.83,49,0,1.54,US,1699187327
185,farkhar,36.5729,69.8578,14.06,28,100,0.47,AF,1699235300
186,banda aceh,5.5577,95.3222,26.11,84,100,2.31,ID,1699226709
187,luderitz,-26.6481,15.1594,14.83,84,0,4.15,NA,1699243575
188,zhanaozen,43.3,52.8,13.52,29,7,4.66,KZ,1699240171
189,ghormach,35.7306,63.7826,16.2,58,100,0.4,AF,1699236673
190,zyryanskoye,56.8306,86.6258,-6.24,92,100,4.79,RU,1699234370
191,revda,56.801,59.9303,-4.61,91,58,1.52,RU,1699240780
192,tralee,52.2704,-9.7026,9.33,80,32,7.39,IE,1699170054
193,anloga,5.7947,0.8973,27.58,83,53,3.85,GH,1699162979
194,semporna,4.4818,118.6112,25.94,88,45,1.76,MY,1699221046
195,usinsk,65.9939,57.5281,-3.85,96,100,6.71,RU,1699244456
196,pimentel,-6.8367,-79.9342,22.16,73,0,8.75,PE,1699181528
197,namibe,-15.1961,12.1522,21.65,87,82,2.17,AO,1699158840
198,gadzhiyevo,69.2551,33.3362,0.65,99,100,5.41,RU,1699252220
199,fort bragg,35.139,-79.006,24.08,34,0,2.57,US,1699184447
200,port elizabeth,-33.918,25.5701,16.84,92,0,3.09,ZA,1699240381
201,hwange,-18.3693,26.5019,27.72,28,77,0.75,ZW,1699241537
202,mailsi,29.8003,72.1758,22.66,23,15,1.67,PK,1699234094
203,cafayate,-26.073,-65.9761,24.15,27,0,4.76,AR,1699176726
204,jiangzi,28.95,89.6333,-5.82,40,2,1.35,CN,1699229827
205,petrozavodsk,61.7849,34.3469,1.95,97,100,3.0,RU,1699248333
206,port saint john's,-31.6229,29.5448,20.16,91,98,3.46,ZA,1699239660
207,hoeyang,38.7103,127.5983,17.02,97,100,7.0,KP,1699221661
208,saint-philippe,-21.3585,55.7679,21.17,85,79,5.21,RE,1699234279
209,mount isa,-20.7333,139.5,25.87,13,8,4.63,AU,1699214240
210,hithadhoo,-0.6,73.0833,26.92,79,88,6.55,MV,1699231628
211,ksar chellala,35.2122,2.3189,14.51,72,8,1.79,DZ,1699164923
212,punta arenas,-53.15,-70.9167,12.06,43,0,12.35,CL,1699174396
213,malvan,16.0667,73.4667,28.34,74,100,3.04,IN,1699232691
214,pruzhany,52.5567,24.4644,9.59,88,100,5.98,BY,1699248408
215,cabo san lucas,22.8909,-109.9124,30.84,59,100,0.89,MX,1699190800
216,georgetown,5.4112,100.3354,25.96,95,20,1.54,MY,1699225496
217,palikir - national government center,6.9248,158.1611,25.47,94,100,4.12,FM,1699211719
218,kargasok,59.0556,80.8572,-5.58,89,100,7.6,RU,1699236324
219,okakarara,-20.5833,17.4333,19.29,22,51,1.81,NA,1699243539
220,sharypovo,55.5403,89.2008,-5.97,83,98,5.36,RU,1699233456
221,newman,37.3138,-121.0208,25.69,47,98,0.45,US,1699194759
222,selebi-phikwe,-21.979,27.8498,24.88,37,43,3.01,BW,1699240927
223,sitka,57.0531,-135.33,7.52,94,100,1.49,US,1699201241
224,bam,29.106,58.357,17.08,56,16,2.26,IR,1699237351
225,nishinoomote,30.7333,131.0,23.95,82,9,5.7,JP,1699220052
226,marsh harbour,26.5412,-77.0636,24.78,78,21,8.65,BS,1699183206
227,ola,59.5833,151.2833,-7.55,77,97,4.77,RU,1699219539
228,sabang,5.8933,95.3214,27.37,76,100,1.68,ID,1699226732
229,rikaze,29.25,88.8833,-1.59,23,2,2.1,CN,1699230033
230,skowhegan,44.7651,-69.7192,9.28,59,60,3.38,US,1699183313
231,hotan,37.0997,79.9269,7.74,23,0,0.51,CN,1699232937
232,coeur d'alene,47.6777,-116.7805,12.74,75,100,2.06,US,1699195029
233,bechar,31.6167,-2.2167,20.14,22,0,1.71,DZ,1699165672
234,beberibe,-4.1797,-38.1306,25.98,80,30,4.97,BR,1699171677
235,waingapu,-9.6567,120.2641,25.52,81,19,1.25,ID,1699219680
236,dryden,49.7833,-92.7503,-1.84,93,100,3.6,CA,1699189583
237,uturoa,-16.7333,-151.4333,25.54,81,54,5.26,PF,1699197977
238,kangding,30.0513,101.9603,6.18,57,100,1.28,CN,1699226964
239,saudarkrokur,65.7461,-19.6394,0.8,91,100,7.38,IS,1699176285
240,goondiwindi,-28.55,150.3167,19.02,66,96,5.88,AU,1699210981
241,island harbour,50.724,-1.2758,11.66,81,100,3.13,GB,1699167759
242,ballina,-28.8667,153.5667,18.77,77,83,2.5,AU,1699210172
243,longgang,37.6508,120.3286,10.61,56,97,14.73,CN,1699223292
244,darwin,-12.4611,130.8418,27.99,84,75,0.51,AU,1699216942
245,abong mbang,3.9833,13.1833,19.96,98,79,0.28,CM,1699159909
246,cadale,2.7603,46.3222,27.73,76,100,4.18,SO,1699238279
247,viedma,-40.8135,-62.9967,23.78,30,100,2.85,AR,1699174494
248,shenjiamen,29.9576,122.298,17.39,72,99,11.85,CN,1699222072
249,tazacorte,28.629,-17.9293,21.75,91,75,3.09,ES,1699169182
250,loreto,22.2667,-101.9667,23.22,16,22,6.05,MX,1699188844
251,faxinal,-24.0003,-51.3194,17.84,69,0,1.88,BR,1699173385
252,maluso,6.543,121.8753,25.05,80,100,0.92,PH,1699220403
253,vadso,70.0744,29.7487,0.09,93,75,3.09,NO,1699167002
254,baneasa,44.0461,26.0642,16.53,70,59,7.43,RO,1699246690
255,hammerfest,70.6634,23.6821,0.25,80,75,2.57,NO,1699168952
256,qarauyl,48.9451,79.255,-4.32,94,22,2.4,KZ,1699234618
257,mayqayyng,51.4625,75.7986,-2.79,77,2,0.08,KZ,1699235871
258,yerofey pavlovich,53.9667,121.9667,-15.32,61,0,0.71,RU,1699225251
259,cabedelo,-6.9811,-34.8339,27.37,71,61,6.22,BR,1699170695
260,changji,44.0167,87.3167,0.44,69,20,2.0,CN,1699231972
261,songjianghe,42.1859,127.479,10.68,91,100,2.27,CN,1699222093
262,taulaga,-11.0553,-171.0883,27.83,82,95,8.82,AS,1699203108
263,ushtobe,45.2514,77.9838,3.79,76,7,6.87,KZ,1699234379
264,tahoua,14.8888,5.2692,29.99,19,23,3.09,NE,1699162555
265,sangmelima,2.9333,11.9833,21.1,97,100,0.85,CM,1699160127
266,plouzane,48.3833,-4.6167,11.03,81,75,6.17,FR,1699168186
267,bargaal,11.2864,51.0773,25.65,85,42,2.66,SO,1699237725
268,barah,13.7,30.3667,28.82,23,30,2.96,SD,1699242867
269,carnarvon,-24.8667,113.6333,20.84,86,97,6.26,AU,1699220106
270,polyarnyy,69.1989,33.4478,0.72,98,100,4.94,RU,1699252152
271,prairie grove,35.9759,-94.3177,23.01,56,54,4.84,US,1699188208
272,queensbury,53.7667,-1.9167,6.76,92,78,3.22,GB,1699168466
273,klyuchi,52.2667,79.1667,-4.52,95,14,1.98,RU,1699235208
274,concepcion del oro,24.6333,-101.4167,20.87,26,92,1.99,MX,1699188898
275,zarzis,33.504,11.1122,24.17,39,0,3.51,TN,1699162646
276,sungailiat,-1.85,106.1333,26.86,80,99,0.38,ID,1699223611
277,amahai,-3.3333,128.9167,26.01,84,72,0.83,ID,1699218042
278,praia da vitoria,38.7333,-27.0667,15.14,72,40,4.92,PT,1699172345
279,xiongzhou,25.1167,114.3,20.99,90,86,3.95,CN,1699223581
280,kerikeri,-35.2268,173.9474,18.28,70,40,0.89,NZ,1699204654
281,avarua,-21.2078,-159.775,25.03,53,20,6.69,CK,1699199633
282,howrah,22.5892,88.3103,24.0,83,40,2.57,IN,1699229619
283,shreveport,32.5251,-93.7502,26.35,51,20,2.06,US,1699187737
284,sinabang,2.4803,96.3801,26.04,84,100,0.46,ID,1699226246
285,udachny,66.4167,112.4,-11.76,89,100,3.07,RU,1699231463
286,umluj,25.0213,37.2685,29.22,60,22,1.75,SA,1699242069
287,cova figueira,14.8905,-24.2934,23.85,78,8,5.79,CV,1699169652
288,zeya,53.75,127.2667,-14.17,62,0,0.3,RU,1699223933
289,kolosovka,56.4678,73.611,-5.45,95,9,3.51,RU,1699237413
290,kalmunai,7.4167,81.8167,25.69,84,100,1.3,LK,1699230078
291,queenstown,-31.8976,26.8753,15.84,85,73,1.11,ZA,1699240273
292,qujing,25.4833,103.7833,10.57,93,41,1.37,CN,1699226136
293,coahuayana de hidalgo,18.7,-103.6583,30.17,69,91,2.51,MX,1699188981
294,la passe,45.5549,-0.8967,12.21,80,31,6.61,FR,1699166886
295,xinqing,48.2333,129.5,-10.19,82,100,2.96,CN,1699222435
296,tura,25.5198,90.2201,17.33,88,0,2.01,IN,1699229396
297,swift current,50.2834,-107.8014,5.45,87,100,7.2,CA,1699193281
298,san fernando de apure,7.8878,-67.4724,26.4,88,91,1.09,VE,1699179532
299,hun,29.1268,15.9477,24.84,19,0,2.6,LY,1699247536
300,constantia,44.1833,28.65,14.38,71,20,5.42,RO,1699246087
301,thinadhoo,0.5333,72.9333,27.06,81,97,6.21,MV,1699231741
302,santa terezinha,-29.9002,-50.0904,17.1,77,97,2.76,BR,1699172573
303,puerto cabezas,14.0351,-83.3888,29.98,84,75,2.06,NI,1699183778
304,brookings,44.3114,-96.7984,18.95,56,0,8.23,US,1699189759
305,necochea,-38.5473,-58.7368,20.81,58,48,4.88,AR,1699173747
306,egilsstadir,65.2653,-14.3948,0.95,100,100,10.8,IS,1699174806
307,whistler,50.1164,-122.9695,7.06,100,100,0.0,CA,1699196898
308,popondetta,-8.7537,148.2534,27.13,78,100,0.24,PG,1699213027
309,tateyama,34.9833,139.8667,18.94,72,27,5.93,JP,1699218325
310,piti village,13.4626,144.6933,29.06,81,24,7.65,GU,1699215405
311,cachoeiro de itapemirim,-20.8489,-41.1128,21.18,82,100,1.55,BR,1699171192
312,dzhambeyty,50.2536,52.595,6.64,76,2,4.99,KZ,1699241238
313,tacuarembo,-31.7333,-55.9833,17.09,72,78,3.05,UY,1699173812
314,kununurra,-15.7667,128.7333,24.99,83,77,2.06,AU,1699217205
315,kulhudhuffushi,6.6221,73.07,27.73,73,95,3.0,MV,1699232123
316,bayanhongor,46.7167,100.1167,-12.64,62,68,1.24,MN,1699229268
317,thisted,56.9552,8.6949,8.97,91,99,3.72,DK,1699166598
318,san luis,-33.295,-66.3356,27.31,24,0,0.34,AR,1699176140
319,port alberni,49.2413,-124.8028,11.73,94,100,1.32,CA,1699197197
320,vorkuta,67.5,64.0,-13.28,98,94,2.93,RU,1699243699
321,maxixe,-23.8597,35.3472,21.28,84,0,2.73,MZ,1699238972
322,morant bay,17.8815,-76.4093,31.79,79,78,4.28,JM,1699182378
323,arraial do cabo,-22.9661,-42.0278,22.92,68,0,6.69,BR,1699171241
324,dickinson,29.4608,-95.0513,27.31,67,75,5.14,US,1699187773
325,umm kaddadah,13.6017,26.6876,28.12,20,88,4.61,SD,1699243744
326,tarawa,1.419,172.984,30.05,79,40,0.51,KI,1699207788
327,potchefstroom,-26.7167,27.1,22.04,45,38,2.92,ZA,1699240704
328,spring creek,40.7266,-115.5859,17.83,40,99,7.13,US,1699193830
329,mandera,3.9366,41.867,26.67,75,79,0.85,KE,1699239429
330,sotkamo,64.1333,28.4167,2.01,100,100,1.54,FI,1699250628
331,dudinka,69.4058,86.1778,-14.07,97,100,2.68,RU,1699239606
332,hilo,19.7297,-155.09,26.25,88,100,1.54,US,1699201405
333,sandnessjoen,66.0217,12.6316,4.12,63,20,3.09,NO,1699168650
334,okhotsk,59.3833,143.3,-16.48,84,85,9.27,RU,1699221402
335,selkirk,50.1436,-96.8845,1.19,94,100,4.42,CA,1699190635
336,temryuk,45.2722,37.3811,15.14,75,94,5.4,RU,1699244136
337,ngaoundere,7.3167,13.5833,20.23,84,52,1.35,CM,1699160037
338,manta,-0.95,-80.7333,27.88,65,75,6.69,EC,1699182119
339,mlimba,-8.8,35.8167,22.91,90,90,0.87,TZ,1699240005
340,jayapura,-2.5333,140.7,25.66,87,82,1.41,ID,1699215268
341,macapa,0.0389,-51.0664,31.99,62,0,5.14,BR,1699175066
342,alice springs,-23.7,133.8833,20.75,16,75,0.0,AU,1699215346
343,pacific grove,36.6177,-121.9166,22.53,74,87,0.89,US,1699194902
344,baise city,23.8997,106.6133,21.8,97,100,1.29,CN,1699225328
345,caleta de carquin,-11.0925,-77.6267,20.21,78,61,4.79,PE,1699180678
346,bamnet narong,15.4992,101.6897,25.97,81,92,0.87,TH,1699225875
347,touros,-5.1989,-35.4608,26.62,70,69,6.23,BR,1699170967
348,yenotayevka,47.2456,47.0281,11.15,68,100,3.76,RU,1699242100
349,saltburn-by-the-sea,54.5824,-0.9737,7.14,93,57,2.24,GB,1699168403
350,alamosa,37.4695,-105.87,18.99,12,0,6.69,US,1699191137
351,lemvig,56.5486,8.3102,8.97,96,97,4.28,DK,1699166597
352,adrar,20.5022,-10.0711,25.77,21,6,3.97,MR,1699166646
353,conduaga,8.862,117.4893,25.64,84,91,1.22,PH,1699221615
354,westport,41.1415,-73.3579,16.06,58,100,4.63,US,1699183736
355,kailua-kona,19.6406,-155.9956,28.06,76,3,1.34,US,1699201616
356,boguchany,58.3814,97.4531,-3.97,79,100,5.36,RU,1699232154
357,taitung city,22.7583,121.1444,24.69,78,29,1.45,TW,1699221749
358,trebujena,36.8725,-6.2165,18.05,82,0,1.54,ES,1699167140
359,groningen,53.25,6.75,10.59,89,75,6.69,NL,1699166283
360,nemyriv,48.9708,28.8378,11.89,61,99,6.84,UA,1699246736
361,oyon,-10.6681,-76.7731,10.89,82,100,0.08,PE,1699180503
362,urzhar,47.093,81.6294,2.44,69,8,2.95,KZ,1699233765
363,mandalgovi,45.7625,106.2708,-11.78,87,7,4.77,MN,1699227654
364,madimba,-10.4,40.3333,25.14,88,46,3.1,TZ,1699238808
365,chipping ongar,51.7038,0.2455,9.68,87,60,1.34,GB,1699167562
366,susuman,62.7833,148.1667,-24.57,98,96,0.82,RU,1699221307
367,ranchettes,41.2186,-104.7903,19.91,15,0,12.35,US,1699191295
368,tosontsengel,48.7567,98.2839,-15.55,89,100,1.6,MN,1699230016
369,awjilah,29.1081,21.2869,23.1,26,0,1.63,LY,1699246253
370,mazabuka,-15.856,27.748,23.3,31,22,2.07,ZM,1699241430
371,nakatsugawa,35.4833,137.5,13.39,84,57,1.77,JP,1699218943
372,magdalena de kino,30.6333,-110.95,32.02,15,0,4.93,MX,1699191694
373,kolokani,13.5728,-8.0339,28.29,16,87,2.12,ML,1699165655
374,pitimbu,-7.4706,-34.8086,27.33,73,24,6.56,BR,1699170655
375,angaur state,6.906,134.13,28.44,74,98,2.27,PW,1699217486
376,fiambala,-27.6871,-67.6149,26.74,12,0,5.09,AR,1699176978
377,brooks,50.5834,-111.8851,11.99,58,90,2.57,CA,1699194313
378,laascaanood,8.4774,47.3597,23.87,78,60,5.76,SO,1699238422
379,crane,31.3974,-102.3501,24.69,34,100,5.47,US,1699189698
380,bayanaul,50.7889,75.6956,-3.24,76,1,1.04,KZ,1699235778
381,campo gallo,-26.5833,-62.85,29.91,27,0,3.5,AR,1699175932
382,chabahar,25.2919,60.643,26.04,68,0,1.59,IR,1699236479
383,alnwick,55.4132,-1.7056,6.71,93,75,3.6,GB,1699168752
384,kalispell,48.1958,-114.3129,11.27,59,0,4.63,US,1699194514
385,turkmenbasy,40.0222,52.9552,10.43,87,0,2.06,TM,1699239737
386,timmins,48.4669,-81.3331,-3.1,59,75,2.06,CA,1699186631
387,yuzhno-kurilsk,44.0306,145.8556,8.54,81,96,6.35,RU,1699217912
388,san jose de mayo,-34.3375,-56.7136,18.46,51,86,3.04,UY,1699173725
389,al hazm,16.1641,44.7769,23.64,36,13,1.77,YE,1699239586
390,san marcos,33.1434,-117.1661,33.62,43,0,4.12,US,1699193418
391,cuamba,-14.8031,36.5372,27.17,49,87,1.05,MZ,1699239399
392,concordia,-31.393,-58.0209,19.03,74,47,2.25,AR,1699174333
393,porto tolle,44.9497,12.3245,13.58,75,0,3.88,IT,1699163628
394,akureyri,65.6835,-18.0878,0.96,86,100,5.66,IS,1699175883
395,luganville,-15.5333,167.1667,26.51,85,95,5.08,VU,1699208001
396,puerto salgar,5.463,-74.6544,26.98,90,67,2.32,CO,1699181092
397,krasnokamensk,50.0979,118.0369,-15.94,67,0,1.64,RU,1699225487
398,sao tome,0.3365,6.7273,26.44,87,38,2.96,ST,1699161215
399,alvaraes,-3.2208,-64.8042,28.93,76,100,1.97,BR,1699178143
400,chachersk,52.9164,30.9179,7.95,87,85,5.83,BY,1699246925
401,pineville,31.3224,-92.4343,27.96,37,0,1.54,US,1699187310
402,lata,40.1629,-8.3327,10.6,96,31,1.08,PT,1699168004
403,minab,27.1467,57.0801,25.67,62,0,2.29,IR,1699237489
404,gunupur,19.0833,83.8167,22.41,93,89,0.94,IN,1699230429
405,abepura,-2.6333,140.5833,25.45,83,40,1.03,ID,1699215289
406,holualoa,19.6228,-155.9522,25.99,76,3,0.45,US,1699201604
407,souillac,-20.5167,57.5167,23.21,94,75,3.6,MU,1699233927
408,sayat,38.7839,63.8803,9.93,25,70,1.65,TM,1699236973
409,vila franca do campo,37.7167,-25.4333,15.49,99,14,2.94,PT,1699171844
410,makoua,0.0069,15.6333,22.43,97,60,0.68,CG,1699159055
411,letterkenny,54.95,-7.7333,7.94,91,74,2.52,IE,1699170103
412,kerch,45.3583,36.4758,18.09,77,56,8.49,UA,1699244366
413,la trinite,14.7376,-60.9629,26.03,89,75,7.72,MQ,1699178444
414,port lincoln,-34.7333,135.8667,15.4,73,1,3.9,AU,1699213840
415,tanjung pinang,0.9167,104.45,26.02,75,92,2.88,ID,1699224203
416,bel ombre,-4.6167,55.4167,27.91,78,40,7.2,SC,1699235593
417,bridgewater,44.3835,-64.5155,10.82,75,100,3.09,CA,1699182013
418,kuqa,41.7278,82.9364,6.27,26,17,1.51,CN,1699232736
419,bondoukou,8.0333,-2.8,25.76,66,27,0.97,CI,1699164018
420,onega,63.9061,38.1404,2.48,98,100,5.86,RU,1699248197
421,bubaque,11.2833,-15.8333,29.11,74,20,4.45,GW,1699167369
422,den burg,53.0542,4.7972,12.21,73,100,8.23,NL,1699166715
423,vila velha,-20.3297,-40.2925,23.97,80,75,4.92,BR,1699171036
424,oltinko'l,40.8011,72.1634,14.03,21,100,1.66,UZ,1699235214
425,kapa'a,22.0752,-159.319,27.33,73,78,1.79,US,1699202599
426,salym,60.0625,71.4789,-5.56,90,80,2.95,RU,1699238864
427,aqadyr,48.2553,72.8483,1.89,82,76,3.04,KZ,1699236049
428,ta`u,-14.2336,-169.5144,26.61,81,100,9.6,AS,1699202501
429,alpine,32.835,-116.7664,31.43,21,0,4.63,US,1699193293
430,hailar,49.2,119.7,-17.85,95,83,2.83,CN,1699224941
431,hlybokaye,55.1382,27.6879,9.15,85,100,6.49,BY,1699248153
432,safi,32.1667,-8.8333,16.46,76,66,7.27,MA,1699167311
433,san luis de la loma,17.2706,-100.8939,29.08,76,32,2.59,MX,1699188212
434,codrington,-38.2667,141.9667,19.25,53,96,2.88,AU,1699211984
435,carroll,39.5501,-77.0164,18.21,43,0,1.54,US,1699184432
436,rongelap,11.1635,166.8941,28.08,76,100,7.57,MH,1699209915
437,dazuocun,24.8862,118.9643,23.35,80,45,2.6,CN,1699222442
438,shangzhi,45.2167,127.9667,-4.91,95,100,10.85,CN,1699222367
439,hemsby,52.6971,1.6918,8.54,91,12,6.99,GB,1699167395
440,piacabucu,-10.4056,-36.4344,26.17,81,97,6.85,BR,1699170842
441,fisterra,42.9049,-9.2629,12.08,62,62,11.27,ES,1699168552
442,nicoya,10.1483,-85.452,25.58,92,100,1.11,CR,1699184002
443,tamanrasset,22.785,5.5228,18.95,14,0,2.57,DZ,1699163076
444,gloversville,43.0528,-74.3438,9.42,75,21,3.39,US,1699184204
445,biltine,14.5333,20.9167,27.36,16,9,3.54,TD,1699158773
446,sussex,41.1834,-74.6663,14.97,58,75,3.09,US,1699184055
447,capitan bado,-23.2667,-55.5333,20.22,62,4,4.08,PY,1699174457
448,fremont,37.5483,-121.9886,25.79,63,40,2.68,US,1699195016
449,ji'an,27.1172,114.9793,17.14,71,100,1.92,CN,1699223584
450,daru,-9.0763,143.2092,26.59,81,93,6.05,PG,1699214215
451,bossangoa,6.4926,17.4552,21.69,94,2,0.91,CF,1699159052
452,ozark,37.0209,-93.206,21.23,63,78,1.34,US,1699188048
453,lospalos,-8.5186,127.0025,23.2,72,14,0.88,TL,1699218143
454,tarinkot,32.6268,65.8733,14.94,40,61,1.64,AF,1699235866
455,tual,-5.6667,132.75,27.62,75,100,6.95,ID,1699216962
456,mugia,43.1041,-9.2179,12.17,65,55,10.86,ES,1699168566
457,blair,41.5444,-96.125,19.92,58,0,11.32,US,1699189252
458,walvis bay,-22.9575,14.5053,15.05,88,3,2.06,NA,1699244048
459,garoua,9.3,13.4,27.72,59,15,0.92,CM,1699160215
460,castelli,-25.9468,-60.6195,27.21,36,0,4.44,AR,1699175452
461,susner,23.95,76.0833,20.93,42,3,2.71,IN,1699232663
462,timbuktu,16.7735,-3.0074,30.1,11,16,3.17,ML,1699164676
463,san julian,21.0167,-102.1667,24.27,9,91,1.96,MX,1699188796
464,mukharram al fawqani,34.8151,37.0861,18.45,44,1,2.2,SY,1699242992
465,aras-asan,8.8908,126.3033,25.74,87,17,1.4,PH,1699219501
466,oliveira dos brejinhos,-12.3169,-42.8961,26.36,69,100,1.12,BR,1699172257
467,izyum,49.2088,37.2485,12.4,86,97,3.99,UA,1699244753
468,peterhead,57.5058,-1.7981,4.22,81,48,1.97,GB,1699169252
469,williamson,30.6502,-97.6003,26.47,57,0,4.63,US,1699188490
470,morehead city,34.7229,-76.726,20.57,57,0,0.89,US,1699183858
471,vitoria da conquista,-14.8661,-40.8394,21.7,89,89,4.82,BR,1699171579
472,chegdomyn,51.1167,133.0167,-15.32,86,3,0.99,RU,1699222061
473,mantua,45.1667,10.7833,10.59,90,1,1.79,IT,1699164028
474,lamezia terme,38.9659,16.3092,19.83,68,20,10.29,IT,1699161952
475,kimbe,-5.5502,150.1429,27.65,80,99,1.0,PG,1699212796
476,ziro,27.6333,93.8333,5.82,94,2,1.22,IN,1699228705
477,conselheiro pena,-19.1722,-41.4722,24.44,85,66,2.78,BR,1699171409
478,calvinia,-31.4707,19.776,11.79,64,28,1.86,ZA,1699242018
479,pangai,-19.8,-174.35,28.06,69,40,5.14,TO,1699289615
480,zacualtipan,20.65,-98.6,15.87,80,99,2.63,MX,1699187912
481,draguseni,45.9667,27.75,12.53,62,84,4.16,RO,1699246547
482,atafu village,-8.5421,-172.5159,28.83,74,77,3.6,TK,1699290018
483,as sulayyil,20.4607,45.5779,24.14,44,6,4.09,SA,1699239714
484,dunedin,-45.8742,170.5036,12.67,52,17,4.02,NZ,1699204128
485,hantsavichy,52.758,26.43,9.22,92,100,4.7,BY,1699247973
486,kapuskasing,49.4169,-82.4331,-2.0,50,75,0.51,CA,1699187045
487,iskateley,67.6803,53.1512,-4.43,96,100,7.6,RU,1699246415
488,sambava,-14.2667,50.1667,24.07,85,13,3.53,MG,1699236168
489,nampula,-15.1165,39.2666,21.35,82,11,1.29,MZ,1699238721
490,jackson,42.4165,-122.8345,18.84,76,99,0.45,US,1699195773
491,nar'yan-mar,67.6713,53.087,-4.38,96,100,7.6,RU,1699246425
492,birjand,32.8663,59.2211,11.26,100,75,2.06,IR,1699237486
493,kargil,34.5667,76.1,-2.29,41,7,1.1,IN,1699233598
494,laguna,38.421,-121.4238,23.92,68,100,3.6,US,1699194974
495,butterworth,5.3991,100.3638,26.02,95,20,1.54,MY,1699225488
496,la ronge,55.1001,-105.2842,-1.88,86,100,5.14,CA,1699193580
497,sao domingos do maranhao,-5.5758,-44.3853,28.19,62,69,0.97,BR,1699173083
498,yamada,39.4667,141.95,15.85,93,89,3.71,JP,1699218298
499,itoman,26.1247,127.6694,24.11,88,40,1.54,JP,1699220454
500,buala,-8.145,159.5921,27.99,78,100,1.97,SB,1699210348
501,sparta,43.9441,-90.8129,14.08,58,100,3.09,US,1699188273
502,kanel,15.4916,-13.1763,30.0,42,0,1.03,SN,1699167025
503,usol'ye,59.4268,56.6808,-1.13,78,100,3.34,RU,1699242239
504,meulaboh,4.1363,96.1285,24.14,91,100,1.31,ID,1699226419
505,hafar al-batin,28.4328,45.9708,21.32,49,0,1.54,SA,1699240266
506,vicksburg,32.3526,-90.8779,26.85,15,0,1.54,US,1699187031
507,veinticinco de mayo,-35.4323,-60.1727,22.21,52,4,1.79,AR,1699174440
508,warman,52.3168,-106.5679,1.95,93,100,4.63,CA,1699193340
509,vikhorevka,56.1201,101.1636,-7.23,87,100,3.83,RU,1699230711
510,shouguang,36.88,118.7375,5.54,59,4,7.24,CN,1699223593
511,mo i rana,66.3128,14.1428,2.26,60,75,4.12,NO,1699168428
512,rio grande,-32.035,-52.0986,21.06,78,66,4.28,BR,1699172851
513,el porvenir,13.7617,-87.3458,26.63,91,100,0.97,HN,1699184708
514,mendi,-6.1761,143.6513,14.64,95,100,0.63,PG,1699214310
515,jieshi,22.8134,115.8257,23.95,82,54,1.93,CN,1699223030
516,santa ursula,28.4261,-16.4888,21.16,91,75,1.03,ES,1699168819
517,kokuy,52.2037,117.5529,-13.08,50,0,0.8,RU,1699225972
518,saint-pierre,-21.3393,55.4781,23.65,84,9,5.13,RE,1699234350
519,priozersk,61.0393,30.1291,5.53,93,100,1.79,RU,1699249104
520,la'ie,21.6477,-157.9253,31.98,65,6,4.47,US,1699202232
521,manaure,11.7751,-72.4445,30.73,67,82,3.8,CO,1699180992
522,nizhniy odes,63.6445,54.856,1.03,86,100,5.1,RU,1699244073
523,playa del ingles,27.7567,-15.5787,21.89,78,33,1.79,ES,1699168544
524,kirensk,57.7853,108.1119,-3.35,56,100,4.92,RU,1699229439
525,tsiombe,-25.3,45.4833,22.4,78,94,4.54,MG,1699236418
526,bouna,9.2667,-3.0,27.82,47,36,1.97,CI,1699164150
527,kerrville,30.0474,-99.1403,25.1,57,0,5.14,US,1699188806
528,tabuk,17.4189,121.4443,22.86,92,15,1.12,PH,1699221272
529,myrina,39.8797,25.0742,19.58,77,0,6.69,GR,1699246417
530,saldanha,-33.0117,17.9442,16.03,94,68,4.07,ZA,1699242303
531,ordynskoye,54.3656,81.8994,-8.28,97,65,3.36,RU,1699234961
532,howard springs,-12.497,131.047,27.95,87,57,0.93,AU,1699216890
533,inhambane,-23.865,35.3833,21.79,82,1,3.14,MZ,1699238963
534,north platte,41.1239,-100.7654,21.25,40,84,3.58,US,1699190317
535,hell-ville,-13.4,48.2667,26.87,74,24,1.93,MG,1699236688
536,wakkanai,45.4094,141.6739,7.27,92,100,2.68,JP,1699219100
537,la sarre,48.8002,-79.1996,-4.65,78,85,0.92,CA,1699186170
538,grand baie,-20.0182,57.5802,23.26,78,72,4.94,MU,1699233951
539,okulovka,58.4008,33.2908,6.82,95,100,2.01,RU,1699247583
540,colindres,43.3864,-3.4353,12.65,84,54,2.65,ES,1699167212
541,ulladulla,-35.35,150.4667,18.2,70,45,2.2,AU,1699210272
542,tumbi,-5.0667,32.7333,20.41,75,63,1.13,TZ,1699241006
543,luanda,-8.8368,13.2343,24.0,88,40,1.03,AO,1699159032
544,rio gallegos,-51.6226,-69.2181,15.03,36,0,9.26,AR,1699174300
545,christchurch,-43.5333,172.6333,11.11,76,100,4.63,NZ,1699203958
546,taroa,8.7058,171.2275,28.24,74,62,8.85,MH,1699208704
547,chishmy,54.5765,55.3764,2.67,75,0,4.95,RU,1699241379
548,nemuro,43.3236,145.575,11.14,79,75,5.8,JP,1699217888
549,luga,58.7372,29.8453,6.18,96,100,2.63,RU,1699248501
550,glenvale,-27.5648,151.9076,14.93,90,100,2.68,AU,1699210688
551,gisborne,-38.6533,178.0042,14.94,81,97,3.54,NZ,1699203296
552,loa janan,-0.583,117.095,23.29,99,97,0.4,ID,1699221066
553,pyt-yakh,60.7499,72.8582,-9.08,92,18,3.85,RU,1699238739
554,peniche,39.3558,-9.3811,15.31,66,21,7.87,PT,1699168165
555,khenifra,32.9333,-5.6667,15.17,79,3,1.19,MA,1699166622
556,carutapera,-1.195,-46.02,27.03,80,71,3.69,BR,1699173772
557,smithers,54.7804,-127.1743,7.18,87,100,3.09,CA,1699198774
558,antsiranana,-12.2787,49.2917,24.82,77,10,6.94,MG,1699236524
559,chauk,20.8833,94.8167,24.36,83,98,2.46,MM,1699227925
560,magsaysay,6.7667,125.1833,23.94,90,100,0.57,PH,1699219624
561,chonchi,-42.6128,-73.8092,8.95,99,100,1.38,CL,1699176854
562,cidreira,-30.1811,-50.2056,17.08,78,97,3.54,BR,1699172574
563,pacocha,-17.5833,-71.3333,18.79,77,33,2.72,PE,1699178694
